{
  "markers": [
    {
      "lat": 43.686372,
      "lng": -79.303309,
      "title": "Stephenson Park Pool",
      "description": "My son Sydney playing in the wading pool when he was a toddler. (Marker and pencil)",
      "url": "https://img1.wsimg.com/isteam/ip/2e43cc59-a1f6-4ebe-a15a-17da7747f17d/d4.jpg/:/"
    },
    {
      "lat": 43.686147,
      "lng": -79.305841,
      "title": "East Side of Stephenson Avenue",
      "description": "Looking east along Stephenson Avenue on a slushy spring day. (Marker, pen and pencil crayon)",
      "url": "https://img1.wsimg.com/isteam/ip/2e43cc59-a1f6-4ebe-a15a-17da7747f17d/d1.jpg/:/rs=w:1280,h:960"
    },
    {
      "lat": 43.686845,
      "lng": -79.302756,
      "title": "126 Stephenson Avenue",
      "description": "Pigeons hanging out on roof, one winter afternoon. (Marker, pen and pencil crayon)",
      "url": "https://img1.wsimg.com/isteam/ip/2e43cc59-a1f6-4ebe-a15a-17da7747f17d/d11.JPG/:/cr=t:10.02%25,l:0%25,w:79.97%25,h:79.97%25/rs=w:1280,h:960"
    },
    {
      "lat": 43.686612,
      "lng": -79.304645,
      "title": "Looking South from Westlake Avenue",
      "description": "Interesting shadows on Westlake Avenue, facing Stephenson. (Pen and pencil crayon)",
      "url": "https://img1.wsimg.com/isteam/ip/2e43cc59-a1f6-4ebe-a15a-17da7747f17d/d3.JPG/:/rs=w:1160,h:1160"
    },
    {
      "lat": 43.686216,
      "lng": -79.304097,
      "title": "Stephenson Park Playground",
      "description": "My son Sydney as a toddler at the playground on a fall afternoon. (Marker, pen and pencil crayon)",
      "url": "https://img1.wsimg.com/isteam/ip/2e43cc59-a1f6-4ebe-a15a-17da7747f17d/d2.JPG/:/rs=w:1160,h:1160"
    },
    {
      "lat": 43.686504,
      "lng": -79.304450,
      "title": "North Side of Stephenson Avenue at Westlake",
      "description": "Sydney standing next to fallen tree branches, following a big storm. (Marker, pen and pencil crayon)",
      "url": "https://img1.wsimg.com/isteam/ip/2e43cc59-a1f6-4ebe-a15a-17da7747f17d/d7.png/:/"
    }
  ]
}
